{
  "title": "Vaccine & Immunization Policy Monitor",
  "description": "World vaccine and immunization policy monitoring dashboard in Japanese.",
  "days_back": 21,
  "max_items": 120,
  "default_language": "ja",
  "require_vaccine_keywords": true,
  "require_policy_keywords": true,
  "feeds": [
    {
      "name": "WHO News",
      "kind": "rss",
      "url": "https://www.who.int/feeds/entity/news-room/rss/en.xml",
      "source_type": "official",
      "priority": 10,
      "origin": {
        "name_ja": "WHO本部（ジュネーブ）",
        "country": "スイス",
        "region": "Europe",
        "lat": 46.2044,
        "lng": 6.1432
      }
    },
    {
      "name": "WHO Disease Outbreak News",
      "kind": "rss",
      "url": "https://www.who.int/feeds/entity/emergencies/disease-outbreak-news/rss.xml",
      "source_type": "official",
      "priority": 10,
      "origin": {
        "name_ja": "WHO本部（ジュネーブ）",
        "country": "スイス",
        "region": "Europe",
        "lat": 46.2044,
        "lng": 6.1432
      }
    },
    {
      "name": "ECDC News",
      "kind": "rss",
      "url": "https://www.ecdc.europa.eu/en/news-events/rss.xml",
      "source_type": "official",
      "priority": 9,
      "origin": {
        "name_ja": "ECDC（ストックホルム）",
        "country": "スウェーデン",
        "region": "Europe",
        "lat": 59.3293,
        "lng": 18.0686
      }
    },
    {
      "name": "FDA Vaccines / Biologics",
      "kind": "rss",
      "url": "https://www.fda.gov/about-fda/contact-fda/stay-informed/rss-feeds/biologics/rss.xml",
      "source_type": "official",
      "priority": 9,
      "origin": {
        "name_ja": "FDA（米国）",
        "country": "米国",
        "region": "North America",
        "lat": 38.9072,
        "lng": -77.0369
      }
    },
    {
      "name": "UNICEF News",
      "kind": "rss",
      "url": "https://www.unicef.org/rss.xml",
      "source_type": "official",
      "priority": 8,
      "origin": {
        "name_ja": "UNICEF（ニューヨーク）",
        "country": "米国",
        "region": "North America",
        "lat": 40.7128,
        "lng": -74.006
      }
    },
    {
      "name": "Global vaccine policy (Google News)",
      "kind": "rss",
      "url": "https://news.google.com/rss/search?q=(vaccine%20OR%20vaccination%20OR%20immunization)%20(policy%20OR%20recommendation%20OR%20schedule%20OR%20approval%20OR%20mandate)&hl=en-US&gl=US&ceid=US:en",
      "source_type": "media",
      "priority": 8,
      "origin": {
        "name_ja": "グローバルメディア",
        "country": "不明",
        "region": "Global",
        "lat": 20.0,
        "lng": 0.0
      }
    },
    {
      "name": "Asia vaccine policy (Google News)",
      "kind": "rss",
      "url": "https://news.google.com/rss/search?q=(vaccine%20OR%20vaccination%20OR%20immunization)%20(policy%20OR%20schedule%20OR%20recommendation)%20(Asia%20OR%20China%20OR%20Japan%20OR%20Korea%20OR%20Hong%20Kong%20OR%20Taiwan%20OR%20Singapore)&hl=en-US&gl=US&ceid=US:en",
      "source_type": "media",
      "priority": 9,
      "origin": {
        "name_ja": "アジア関連メディア",
        "country": "不明",
        "region": "Asia",
        "lat": 22.0,
        "lng": 110.0
      }
    },
    {
      "name": "Europe vaccine policy (Google News)",
      "kind": "rss",
      "url": "https://news.google.com/rss/search?q=(vaccine%20OR%20vaccination%20OR%20immunization)%20(policy%20OR%20recommendation%20OR%20approval)%20(Europe%20OR%20EU%20OR%20UK)&hl=en-GB&gl=GB&ceid=GB:en",
      "source_type": "media",
      "priority": 8,
      "origin": {
        "name_ja": "欧州関連メディア",
        "country": "不明",
        "region": "Europe",
        "lat": 50.0,
        "lng": 10.0
      }
    },
    {
      "name": "Americas vaccine policy (Google News)",
      "kind": "rss",
      "url": "https://news.google.com/rss/search?q=(vaccine%20OR%20vaccination%20OR%20immunization)%20(policy%20OR%20recommendation%20OR%20approval)%20(United%20States%20OR%20Canada%20OR%20Latin%20America)&hl=en-US&gl=US&ceid=US:en",
      "source_type": "media",
      "priority": 8,
      "origin": {
        "name_ja": "米州関連メディア",
        "country": "不明",
        "region": "North America",
        "lat": 37.0,
        "lng": -95.0
      }
    },
    {
      "name": "Africa vaccine policy (Google News)",
      "kind": "rss",
      "url": "https://news.google.com/rss/search?q=(vaccine%20OR%20vaccination%20OR%20immunization)%20(policy%20OR%20campaign%20OR%20rollout%20OR%20Gavi)%20(Africa%20OR%20Nigeria%20OR%20Kenya%20OR%20Ethiopia%20OR%20DRC)&hl=en-US&gl=US&ceid=US:en",
      "source_type": "media",
      "priority": 8,
      "origin": {
        "name_ja": "アフリカ関連メディア",
        "country": "不明",
        "region": "Africa",
        "lat": 1.0,
        "lng": 20.0
      }
    }
  ],
  "vaccine_keywords": [
    "vaccine",
    "vaccination",
    "immunization",
    "immunisation",
    "booster",
    "vaccines",
    "mrna",
    "dose",
    "routine immunization",
    "routine immunisation",
    "jab",
    "shots",
    "予防接種",
    "ワクチン",
    "接種"
  ],
  "policy_keywords": [
    "policy",
    "policies",
    "recommendation",
    "recommendations",
    "committee",
    "advisory",
    "schedule",
    "schedules",
    "approval",
    "approved",
    "authorisation",
    "authorization",
    "mandate",
    "guidance",
    "guideline",
    "programme",
    "program",
    "campaign",
    "coverage",
    "funding",
    "procurement",
    "rollout",
    "launch",
    "tender",
    "reimbursement",
    "NITAG",
    "JCVI",
    "SAGE",
    "immunisation strategy",
    "immunization strategy",
    "policy change",
    "safety alert",
    "warning",
    "supply",
    "stockpile",
    "定期接種",
    "勧告",
    "推奨",
    "承認",
    "接種スケジュール",
    "方針",
    "無料接種",
    "公費",
    "政策"
  ],
  "policy_rules": {
    "recommendation": [
      "recommendation",
      "recommendations",
      "advisory",
      "committee",
      "guidance",
      "guideline",
      "JCVI",
      "SAGE",
      "NITAG",
      "recommend"
    ],
    "schedule": [
      "schedule",
      "routine immunization",
      "routine immunisation",
      "calendar",
      "dose timing",
      "booster dose",
      "catch-up"
    ],
    "approval": [
      "approval",
      "approved",
      "authorisation",
      "authorization",
      "licence",
      "license",
      "indication",
      "market authorization",
      "EUA"
    ],
    "funding": [
      "funding",
      "budget",
      "procurement",
      "tender",
      "reimbursement",
      "coverage expansion",
      "Gavi",
      "funded"
    ],
    "safety": [
      "safety",
      "warning",
      "alert",
      "adverse",
      "side effect",
      "pause",
      "suspend",
      "label change"
    ],
    "outbreak_response": [
      "outbreak",
      "campaign",
      "response vaccination",
      "ring vaccination",
      "emergency vaccination",
      "containment"
    ],
    "access_campaign": [
      "campaign",
      "rollout",
      "launch",
      "access",
      "uptake",
      "coverage",
      "school entry",
      "community"
    ],
    "general_policy": [
      "policy",
      "programme",
      "program",
      "strategy"
    ]
  },
  "variant_patterns": [
    "jn.1",
    "kp.2",
    "kp.3",
    "xbb",
    "ba.2",
    "ba.5",
    "omicron",
    "h5n1",
    "clade i",
    "clade ii"
  ],
  "country_map": {
    "japan": {
      "name_ja": "日本",
      "lat": 35.6762,
      "lng": 139.6503,
      "region": "Asia"
    },
    "china": {
      "name_ja": "中国",
      "lat": 39.9042,
      "lng": 116.4074,
      "region": "Asia"
    },
    "hong kong": {
      "name_ja": "香港",
      "lat": 22.3193,
      "lng": 114.1694,
      "region": "Asia"
    },
    "taiwan": {
      "name_ja": "台湾",
      "lat": 25.033,
      "lng": 121.5654,
      "region": "Asia"
    },
    "south korea": {
      "name_ja": "韓国",
      "lat": 37.5665,
      "lng": 126.978,
      "region": "Asia"
    },
    "republic of korea": {
      "name_ja": "韓国",
      "lat": 37.5665,
      "lng": 126.978,
      "region": "Asia"
    },
    "singapore": {
      "name_ja": "シンガポール",
      "lat": 1.3521,
      "lng": 103.8198,
      "region": "Asia"
    },
    "thailand": {
      "name_ja": "タイ",
      "lat": 13.7563,
      "lng": 100.5018,
      "region": "Asia"
    },
    "vietnam": {
      "name_ja": "ベトナム",
      "lat": 21.0278,
      "lng": 105.8342,
      "region": "Asia"
    },
    "malaysia": {
      "name_ja": "マレーシア",
      "lat": 3.139,
      "lng": 101.6869,
      "region": "Asia"
    },
    "philippines": {
      "name_ja": "フィリピン",
      "lat": 14.5995,
      "lng": 120.9842,
      "region": "Asia"
    },
    "india": {
      "name_ja": "インド",
      "lat": 28.6139,
      "lng": 77.209,
      "region": "Asia"
    },
    "pakistan": {
      "name_ja": "パキスタン",
      "lat": 33.6844,
      "lng": 73.0479,
      "region": "Asia"
    },
    "bangladesh": {
      "name_ja": "バングラデシュ",
      "lat": 23.8103,
      "lng": 90.4125,
      "region": "Asia"
    },
    "australia": {
      "name_ja": "オーストラリア",
      "lat": -35.2809,
      "lng": 149.13,
      "region": "Oceania"
    },
    "new zealand": {
      "name_ja": "ニュージーランド",
      "lat": -41.2866,
      "lng": 174.7756,
      "region": "Oceania"
    },
    "united states": {
      "name_ja": "米国",
      "lat": 38.9072,
      "lng": -77.0369,
      "region": "North America"
    },
    "usa": {
      "name_ja": "米国",
      "lat": 38.9072,
      "lng": -77.0369,
      "region": "North America"
    },
    "canada": {
      "name_ja": "カナダ",
      "lat": 45.4215,
      "lng": -75.6972,
      "region": "North America"
    },
    "mexico": {
      "name_ja": "メキシコ",
      "lat": 19.4326,
      "lng": -99.1332,
      "region": "North America"
    },
    "uk": {
      "name_ja": "英国",
      "lat": 51.5074,
      "lng": -0.1278,
      "region": "Europe"
    },
    "united kingdom": {
      "name_ja": "英国",
      "lat": 51.5074,
      "lng": -0.1278,
      "region": "Europe"
    },
    "england": {
      "name_ja": "英国",
      "lat": 51.5074,
      "lng": -0.1278,
      "region": "Europe"
    },
    "eu": {
      "name_ja": "EU",
      "lat": 50.8503,
      "lng": 4.3517,
      "region": "Europe"
    },
    "european union": {
      "name_ja": "EU",
      "lat": 50.8503,
      "lng": 4.3517,
      "region": "Europe"
    },
    "france": {
      "name_ja": "フランス",
      "lat": 48.8566,
      "lng": 2.3522,
      "region": "Europe"
    },
    "germany": {
      "name_ja": "ドイツ",
      "lat": 52.52,
      "lng": 13.405,
      "region": "Europe"
    },
    "italy": {
      "name_ja": "イタリア",
      "lat": 41.9028,
      "lng": 12.4964,
      "region": "Europe"
    },
    "spain": {
      "name_ja": "スペイン",
      "lat": 40.4168,
      "lng": -3.7038,
      "region": "Europe"
    },
    "sweden": {
      "name_ja": "スウェーデン",
      "lat": 59.3293,
      "lng": 18.0686,
      "region": "Europe"
    },
    "switzerland": {
      "name_ja": "スイス",
      "lat": 46.948,
      "lng": 7.4474,
      "region": "Europe"
    },
    "nigeria": {
      "name_ja": "ナイジェリア",
      "lat": 9.0765,
      "lng": 7.3986,
      "region": "Africa"
    },
    "kenya": {
      "name_ja": "ケニア",
      "lat": -1.2921,
      "lng": 36.8219,
      "region": "Africa"
    },
    "ethiopia": {
      "name_ja": "エチオピア",
      "lat": 8.9806,
      "lng": 38.7578,
      "region": "Africa"
    },
    "uganda": {
      "name_ja": "ウガンダ",
      "lat": 0.3476,
      "lng": 32.5825,
      "region": "Africa"
    },
    "ghana": {
      "name_ja": "ガーナ",
      "lat": 5.6037,
      "lng": -0.187,
      "region": "Africa"
    },
    "south africa": {
      "name_ja": "南アフリカ",
      "lat": -25.7479,
      "lng": 28.2293,
      "region": "Africa"
    },
    "drc": {
      "name_ja": "コンゴ民主共和国",
      "lat": -4.4419,
      "lng": 15.2663,
      "region": "Africa"
    },
    "democratic republic of the congo": {
      "name_ja": "コンゴ民主共和国",
      "lat": -4.4419,
      "lng": 15.2663,
      "region": "Africa"
    },
    "brazil": {
      "name_ja": "ブラジル",
      "lat": -15.7939,
      "lng": -47.8828,
      "region": "South America"
    },
    "argentina": {
      "name_ja": "アルゼンチン",
      "lat": -34.6037,
      "lng": -58.3816,
      "region": "South America"
    },
    "colombia": {
      "name_ja": "コロンビア",
      "lat": 4.711,
      "lng": -74.0721,
      "region": "South America"
    },
    "peru": {
      "name_ja": "ペルー",
      "lat": -12.0464,
      "lng": -77.0428,
      "region": "South America"
    },
    "chile": {
      "name_ja": "チリ",
      "lat": -33.4489,
      "lng": -70.6693,
      "region": "South America"
    }
  }
}