{
  "title": "EBS Research Dashboard",
  "description": "Event-based surveillance dashboard for vaccines, variants, and outbreaks.",
  "days_back": 30,
  "max_items": 200,
  "default_language": "ja",
  "feeds": [
    {
      "name": "WHO News",
      "url": "https://www.who.int/feeds/entity/news-room/rss/en.xml",
      "source_type": "official",
      "priority": 10
    },
    {
      "name": "WHO Disease Outbreak News",
      "url": "https://www.who.int/feeds/entity/emergencies/disease-outbreak-news/rss.xml",
      "source_type": "official",
      "priority": 10
    },
    {
      "name": "CDC Media Releases",
      "url": "https://tools.cdc.gov/api/v2/resources/media/403372.rss",
      "source_type": "official",
      "priority": 9
    },
    {
      "name": "FDA Vaccines / Biologics",
      "url": "https://www.fda.gov/about-fda/contact-fda/stay-informed/rss-feeds/biologics/rss.xml",
      "source_type": "official",
      "priority": 9
    },
    {
      "name": "ECDC News",
      "url": "https://www.ecdc.europa.eu/en/news-events/rss.xml",
      "source_type": "official",
      "priority": 8
    },
    {
      "name": "EMA News",
      "url": "https://www.ema.europa.eu/en/news-rss",
      "source_type": "official",
      "priority": 8
    },
    {
      "name": "UNICEF",
      "url": "https://www.unicef.org/rss.xml",
      "source_type": "official",
      "priority": 7
    }
  ],
  "topic_keywords": {
    "vaccine": [
      "vaccine",
      "vaccination",
      "immunization",
      "immunisation",
      "booster",
      "dose",
      "shot",
      "jab",
      "mrna",
      "bivalent",
      "monovalent",
      "vaccin",
      "予防接種",
      "ワクチン",
      "接種"
    ],
    "variant": [
      "variant",
      "lineage",
      "strain",
      "mutation",
      "subvariant",
      "omicron",
      "delta",
      "alpha",
      "beta",
      "gamma",
      "xbb",
      "jn.1",
      "kp.2",
      "kp.3",
      "ba.1",
      "ba.2",
      "ba.4",
      "ba.5",
      "clade",
      "系統",
      "変異株"
    ],
    "outbreak": [
      "outbreak",
      "cluster",
      "epidemic",
      "pandemic",
      "case",
      "cases",
      "surge",
      "spread",
      "infection",
      "transmission",
      "measles",
      "polio",
      "influenza",
      "avian influenza",
      "h5n1",
      "mpox",
      "cholera",
      "dengue",
      "ebola",
      "pertussis",
      "麻疹",
      "百日咳",
      "鳥インフルエンザ",
      "ポリオ",
      "流行",
      "集団発生",
      "感染拡大"
    ]
  },
  "variant_patterns": [
    "omicron",
    "delta",
    "alpha",
    "beta",
    "gamma",
    "xbb",
    "jn.1",
    "kp.2",
    "kp.3",
    "ba.1",
    "ba.2",
    "ba.4",
    "ba.5",
    "h5n1",
    "clade i",
    "clade ii"
  ],
  "country_map": {
    "japan": { "name_ja": "日本", "lat": 35.6762, "lng": 139.6503, "region": "Asia" },
    "china": { "name_ja": "中国", "lat": 39.9042, "lng": 116.4074, "region": "Asia" },
    "hong kong": { "name_ja": "香港", "lat": 22.3193, "lng": 114.1694, "region": "Asia" },
    "south korea": { "name_ja": "韓国", "lat": 37.5665, "lng": 126.9780, "region": "Asia" },
    "republic of korea": { "name_ja": "韓国", "lat": 37.5665, "lng": 126.9780, "region": "Asia" },
    "north korea": { "name_ja": "北朝鮮", "lat": 39.0392, "lng": 125.7625, "region": "Asia" },
    "taiwan": { "name_ja": "台湾", "lat": 25.0330, "lng": 121.5654, "region": "Asia" },
    "mongolia": { "name_ja": "モンゴル", "lat": 47.8864, "lng": 106.9057, "region": "Asia" },
    "vietnam": { "name_ja": "ベトナム", "lat": 21.0278, "lng": 105.8342, "region": "Asia" },
    "thailand": { "name_ja": "タイ", "lat": 13.7563, "lng": 100.5018, "region": "Asia" },
    "cambodia": { "name_ja": "カンボジア", "lat": 11.5564, "lng": 104.9282, "region": "Asia" },
    "laos": { "name_ja": "ラオス", "lat": 17.9757, "lng": 102.6331, "region": "Asia" },
    "myanmar": { "name_ja": "ミャンマー", "lat": 16.8661, "lng": 96.1951, "region": "Asia" },
    "malaysia": { "name_ja": "マレーシア", "lat": 3.1390, "lng": 101.6869, "region": "Asia" },
    "singapore": { "name_ja": "シンガポール", "lat": 1.3521, "lng": 103.8198, "region": "Asia" },
    "indonesia": { "name_ja": "インドネシア", "lat": -6.2088, "lng": 106.8456, "region": "Asia" },
    "philippines": { "name_ja": "フィリピン", "lat": 14.5995, "lng": 120.9842, "region": "Asia" },
    "india": { "name_ja": "インド", "lat": 28.6139, "lng": 77.2090, "region": "Asia" },
    "pakistan": { "name_ja": "パキスタン", "lat": 33.6844, "lng": 73.0479, "region": "Asia" },
    "bangladesh": { "name_ja": "バングラデシュ", "lat": 23.8103, "lng": 90.4125, "region": "Asia" },
    "sri lanka": { "name_ja": "スリランカ", "lat": 6.9271, "lng": 79.8612, "region": "Asia" },
    "nepal": { "name_ja": "ネパール", "lat": 27.7172, "lng": 85.3240, "region": "Asia" },
    "australia": { "name_ja": "オーストラリア", "lat": -35.2809, "lng": 149.1300, "region": "Oceania" },
    "new zealand": { "name_ja": "ニュージーランド", "lat": -41.2866, "lng": 174.7756, "region": "Oceania" },
    "united states": { "name_ja": "米国", "lat": 38.9072, "lng": -77.0369, "region": "North America" },
    "usa": { "name_ja": "米国", "lat": 38.9072, "lng": -77.0369, "region": "North America" },
    "canada": { "name_ja": "カナダ", "lat": 45.4215, "lng": -75.6972, "region": "North America" },
    "mexico": { "name_ja": "メキシコ", "lat": 19.4326, "lng": -99.1332, "region": "North America" },
    "united kingdom": { "name_ja": "英国", "lat": 51.5074, "lng": -0.1278, "region": "Europe" },
    "uk": { "name_ja": "英国", "lat": 51.5074, "lng": -0.1278, "region": "Europe" },
    "france": { "name_ja": "フランス", "lat": 48.8566, "lng": 2.3522, "region": "Europe" },
    "germany": { "name_ja": "ドイツ", "lat": 52.5200, "lng": 13.4050, "region": "Europe" },
    "italy": { "name_ja": "イタリア", "lat": 41.9028, "lng": 12.4964, "region": "Europe" },
    "spain": { "name_ja": "スペイン", "lat": 40.4168, "lng": -3.7038, "region": "Europe" },
    "belgium": { "name_ja": "ベルギー", "lat": 50.8503, "lng": 4.3517, "region": "Europe" },
    "netherlands": { "name_ja": "オランダ", "lat": 52.3676, "lng": 4.9041, "region": "Europe" },
    "sweden": { "name_ja": "スウェーデン", "lat": 59.3293, "lng": 18.0686, "region": "Europe" },
    "norway": { "name_ja": "ノルウェー", "lat": 59.9139, "lng": 10.7522, "region": "Europe" },
    "denmark": { "name_ja": "デンマーク", "lat": 55.6761, "lng": 12.5683, "region": "Europe" },
    "switzerland": { "name_ja": "スイス", "lat": 46.9480, "lng": 7.4474, "region": "Europe" },
    "eu": { "name_ja": "EU", "lat": 50.8503, "lng": 4.3517, "region": "Europe" },
    "european union": { "name_ja": "EU", "lat": 50.8503, "lng": 4.3517, "region": "Europe" },
    "brazil": { "name_ja": "ブラジル", "lat": -15.7939, "lng": -47.8828, "region": "South America" },
    "argentina": { "name_ja": "アルゼンチン", "lat": -34.6037, "lng": -58.3816, "region": "South America" },
    "chile": { "name_ja": "チリ", "lat": -33.4489, "lng": -70.6693, "region": "South America" },
    "peru": { "name_ja": "ペルー", "lat": -12.0464, "lng": -77.0428, "region": "South America" },
    "colombia": { "name_ja": "コロンビア", "lat": 4.7110, "lng": -74.0721, "region": "South America" },
    "south africa": { "name_ja": "南アフリカ", "lat": -25.7479, "lng": 28.2293, "region": "Africa" },
    "nigeria": { "name_ja": "ナイジェリア", "lat": 9.0765, "lng": 7.3986, "region": "Africa" },
    "kenya": { "name_ja": "ケニア", "lat": -1.2921, "lng": 36.8219, "region": "Africa" },
    "uganda": { "name_ja": "ウガンダ", "lat": 0.3476, "lng": 32.5825, "region": "Africa" },
    "ethiopia": { "name_ja": "エチオピア", "lat": 8.9806, "lng": 38.7578, "region": "Africa" },
    "ghana": { "name_ja": "ガーナ", "lat": 5.6037, "lng": -0.1870, "region": "Africa" },
    "drc": { "name_ja": "コンゴ民主共和国", "lat": -4.4419, "lng": 15.2663, "region": "Africa" },
    "democratic republic of the congo": { "name_ja": "コンゴ民主共和国", "lat": -4.4419, "lng": 15.2663, "region": "Africa" }
  }
}
