{
  "title": "Vaccine and Immunization Monitoring",
  "description": "Global monitoring dashboard highlighting the latest information on vaccine and immunization policy, research and development, and communication.",
  "days_back": 30,
  "max_items": 250,
  "default_language": "ja",
  "default_plot_mode": "source",
  "feeds": [
    {"name":"WHO News","url":"https://www.who.int/feeds/entity/news-room/rss/en.xml","source_type":"official","tier":"Tier 1","priority":10,"origin_key":"switzerland","origin_label":"WHO / Geneva"},
    {"name":"WHO Disease Outbreak News","url":"https://www.who.int/feeds/entity/emergencies/disease-outbreak-news/rss.xml","source_type":"official","tier":"Tier 1","priority":10,"origin_key":"switzerland","origin_label":"WHO / Geneva"},
    {"name":"CDC Newsroom","url":"https://tools.cdc.gov/api/v2/resources/media/316422.rss","source_type":"official","tier":"Tier 1","priority":9,"origin_key":"united states","origin_label":"CDC / Atlanta"},
    {"name":"CDC Media Releases","url":"https://tools.cdc.gov/api/v2/resources/media/403372.rss","source_type":"official","tier":"Tier 1","priority":9,"origin_key":"united states","origin_label":"CDC / Atlanta"},
    {"name":"ECDC News","url":"https://www.ecdc.europa.eu/en/news-events/rss.xml","source_type":"official","tier":"Tier 1","priority":9,"origin_key":"sweden","origin_label":"ECDC / Stockholm"},
    {"name":"FDA Vaccines / Biologics","url":"https://www.fda.gov/about-fda/contact-fda/stay-informed/rss-feeds/biologics/rss.xml","source_type":"official","tier":"Tier 1","priority":9,"origin_key":"united states","origin_label":"FDA / Silver Spring"},
    {"name":"Reuters Vaccines / Immunization","url":"https://news.google.com/rss/search?q=(vaccine%20OR%20immunization)%20(policy%20OR%20schedule%20OR%20approval%20OR%20trial)%20site%3Areuters.com&hl=en-US&gl=US&ceid=US%3Aen","source_type":"media","tier":"Tier 2","priority":8,"origin_key":"united kingdom","origin_label":"Reuters / global"},
    {"name":"AP Vaccines / Immunization","url":"https://news.google.com/rss/search?q=(vaccine%20OR%20immunization)%20(policy%20OR%20schedule%20OR%20approval%20OR%20trial)%20site%3Aapnews.com&hl=en-US&gl=US&ceid=US%3Aen","source_type":"media","tier":"Tier 2","priority":8,"origin_key":"united states","origin_label":"AP / global"},
    {"name":"BBC Vaccines / Immunization","url":"https://news.google.com/rss/search?q=(vaccine%20OR%20immunization)%20(policy%20OR%20schedule%20OR%20approval%20OR%20trial)%20site%3Abbc.com&hl=en-US&gl=GB&ceid=GB%3Aen","source_type":"media","tier":"Tier 2","priority":8,"origin_key":"united kingdom","origin_label":"BBC / London"},
    {"name":"Financial Times Vaccines / Immunization","url":"https://news.google.com/rss/search?q=(vaccine%20OR%20immunization)%20(policy%20OR%20schedule%20OR%20approval%20OR%20trial)%20site%3Aft.com&hl=en-US&gl=GB&ceid=GB%3Aen","source_type":"media","tier":"Tier 2","priority":7,"origin_key":"united kingdom","origin_label":"Financial Times / London"},
    {"name":"STAT Vaccines / Immunization","url":"https://news.google.com/rss/search?q=(vaccine%20OR%20immunization)%20(policy%20OR%20schedule%20OR%20approval%20OR%20trial)%20site%3Astatnews.com&hl=en-US&gl=US&ceid=US%3Aen","source_type":"media","tier":"Tier 2","priority":7,"origin_key":"united states","origin_label":"STAT / Boston"},
    {"name":"Nature News Vaccines / Immunization","url":"https://news.google.com/rss/search?q=(vaccine%20OR%20immunization)%20(policy%20OR%20schedule%20OR%20approval%20OR%20trial)%20site%3Anature.com&hl=en-US&gl=GB&ceid=GB%3Aen","source_type":"media","tier":"Tier 2","priority":7,"origin_key":"united kingdom","origin_label":"Nature / London"},
    {"name":"Science Vaccines / Immunization","url":"https://news.google.com/rss/search?q=(vaccine%20OR%20immunization)%20(policy%20OR%20schedule%20OR%20approval%20OR%20trial)%20site%3Ascience.org&hl=en-US&gl=US&ceid=US%3Aen","source_type":"media","tier":"Tier 2","priority":7,"origin_key":"united states","origin_label":"Science / Washington"},
    {"name":"NHK Vaccines / 予防接種","url":"https://news.google.com/rss/search?q=(ワクチン%20OR%20予防接種)%20(政策%20OR%20承認%20OR%20接種%20OR%20スケジュール)%20site%3Anhk.or.jp&hl=ja&gl=JP&ceid=JP%3Aja","source_type":"media","tier":"Tier 2","priority":7,"origin_key":"japan","origin_label":"NHK / Tokyo"},
    {"name":"Nikkei Vaccines / 予防接種","url":"https://news.google.com/rss/search?q=(ワクチン%20OR%20予防接種)%20(政策%20OR%20承認%20OR%20接種%20OR%20スケジュール)%20site%3Anikkei.com&hl=ja&gl=JP&ceid=JP%3Aja","source_type":"media","tier":"Tier 2","priority":7,"origin_key":"japan","origin_label":"Nikkei / Tokyo"},
    {"name":"Kyodo Vaccines / 予防接種","url":"https://news.google.com/rss/search?q=(ワクチン%20OR%20予防接種)%20(政策%20OR%20承認%20OR%20接種%20OR%20スケジュール)%20site%3Akyodonews.jp&hl=ja&gl=JP&ceid=JP%3Aja","source_type":"media","tier":"Tier 2","priority":7,"origin_key":"japan","origin_label":"Kyodo / Tokyo"},
    {"name":"Lancet Vaccine / Immunization","url":"https://news.google.com/rss/search?q=(vaccine%20OR%20immunization)%20site%3Athelancet.com&hl=en-US&gl=GB&ceid=GB%3Aen","source_type":"academic","tier":"Tier 3","priority":6,"origin_key":"united kingdom","origin_label":"Lancet / London"},
    {"name":"NEJM Vaccine / Immunization","url":"https://news.google.com/rss/search?q=(vaccine%20OR%20immunization)%20site%3Anejm.org&hl=en-US&gl=US&ceid=US%3Aen","source_type":"academic","tier":"Tier 3","priority":6,"origin_key":"united states","origin_label":"NEJM / Boston"},
    {"name":"BMJ Vaccine / Immunization","url":"https://news.google.com/rss/search?q=(vaccine%20OR%20immunization)%20site%3Abmj.com&hl=en-US&gl=GB&ceid=GB%3Aen","source_type":"academic","tier":"Tier 3","priority":6,"origin_key":"united kingdom","origin_label":"BMJ / London"},
    {"name":"npj Vaccines","url":"https://news.google.com/rss/search?q=%22npj%20Vaccines%22%20OR%20(vaccine%20site%3Anature.com%2Fnpjvaccines)&hl=en-US&gl=GB&ceid=GB%3Aen","source_type":"academic","tier":"Tier 3","priority":6,"origin_key":"united kingdom","origin_label":"npj Vaccines / London"}
  ],
  "topic_keywords": {
    "policy": ["policy","recommendation","guideline","committee","advisory","acip","nitag","sage","schedule","program","programme","mandate","approval","authorization","authorisation","regulatory","regulation","minutes","meeting","advisory committee","who recommendation","immunization program","免疫","政策","勧告","承認","予防接種","接種方針"],
    "research": ["trial","clinical trial","phase 1","phase 2","phase 3","study","research","effectiveness","efficacy","safety study","immunogenicity","candidate vaccine","platform","mrna","protein subunit","vector vaccine","real-world","preprint","peer-reviewed","論文","研究","臨床試験","有効性","安全性","免疫原性"],
    "communication": ["campaign","communication","public health messaging","messaging","awareness","vaccine hesitancy","confidence","outreach","education campaign","promotion","information campaign","rumor","rumour","misinformation","community engagement","啓発","広報","接種促進","情報発信","ワクチン忌避","信頼"]
  },
  "policy_tags": {
    "recommendation": ["recommendation","guideline","advisory","acip","nitag","sage","勧告","指針"],
    "schedule": ["schedule","childhood immunization schedule","adult immunization schedule","booster schedule","接種スケジュール"],
    "approval": ["approval","authorize","authorisation","authorization","licensure","bla","承認","許可"],
    "financing": ["procurement","funding","budget","tender","purchase","gavi","調達","財政","予算"],
    "safety": ["safety","adverse event","pharmacovigilance","signal","vaers","副反応","安全性"],
    "outbreak_response": ["outbreak","campaign","catch-up","emergency","measles","polio","h5n1","mpox","流行","アウトブレイク"],
    "communication": ["communication","hesitancy","confidence","awareness","education","misinformation","広報","啓発"]
  },
  "vaccine_keywords": {
    "covid": ["covid","sars-cov-2","coronavirus"],
    "influenza": ["influenza","flu","h5n1","avian influenza"],
    "rsv": ["rsv","respiratory syncytial"],
    "measles": ["measles","mmr","麻疹"],
    "polio": ["polio","poliovirus","ポリオ"],
    "hpv": ["hpv","papillomavirus"],
    "pneumococcal": ["pneumococcal","pcv","ppsv"],
    "pertussis": ["pertussis","whooping cough","百日咳"],
    "dengue": ["dengue"],
    "mpox": ["mpox","monkeypox"],
    "ebola": ["ebola"],
    "cholera": ["cholera"],
    "rotavirus": ["rotavirus"],
    "meningococcal": ["meningococcal","meningitis"],
    "hepatitis": ["hepatitis a","hepatitis b","hep a","hep b"]
  },
  "variant_patterns": ["omicron","delta","alpha","beta","gamma","xbb","jn.1","kp.2","kp.3","ba.1","ba.2","ba.4","ba.5","h5n1","clade i","clade ii"],
  "country_map": {
    "japan": {"name_ja":"日本","lat":35.6762,"lng":139.6503,"region":"Asia"},
    "china": {"name_ja":"中国","lat":39.9042,"lng":116.4074,"region":"Asia"},
    "hong kong": {"name_ja":"香港","lat":22.3193,"lng":114.1694,"region":"Asia"},
    "south korea": {"name_ja":"韓国","lat":37.5665,"lng":126.978,"region":"Asia"},
    "republic of korea": {"name_ja":"韓国","lat":37.5665,"lng":126.978,"region":"Asia"},
    "taiwan": {"name_ja":"台湾","lat":25.033,"lng":121.5654,"region":"Asia"},
    "india": {"name_ja":"インド","lat":28.6139,"lng":77.209,"region":"Asia"},
    "indonesia": {"name_ja":"インドネシア","lat":-6.2088,"lng":106.8456,"region":"Asia"},
    "philippines": {"name_ja":"フィリピン","lat":14.5995,"lng":120.9842,"region":"Asia"},
    "thailand": {"name_ja":"タイ","lat":13.7563,"lng":100.5018,"region":"Asia"},
    "vietnam": {"name_ja":"ベトナム","lat":21.0278,"lng":105.8342,"region":"Asia"},
    "malaysia": {"name_ja":"マレーシア","lat":3.139,"lng":101.6869,"region":"Asia"},
    "singapore": {"name_ja":"シンガポール","lat":1.3521,"lng":103.8198,"region":"Asia"},
    "bangladesh": {"name_ja":"バングラデシュ","lat":23.8103,"lng":90.4125,"region":"Asia"},
    "pakistan": {"name_ja":"パキスタン","lat":33.6844,"lng":73.0479,"region":"Asia"},
    "cambodia": {"name_ja":"カンボジア","lat":11.5564,"lng":104.9282,"region":"Asia"},
    "laos": {"name_ja":"ラオス","lat":17.9757,"lng":102.6331,"region":"Asia"},
    "myanmar": {"name_ja":"ミャンマー","lat":16.8661,"lng":96.1951,"region":"Asia"},
    "nepal": {"name_ja":"ネパール","lat":27.7172,"lng":85.324,"region":"Asia"},
    "sri lanka": {"name_ja":"スリランカ","lat":6.9271,"lng":79.8612,"region":"Asia"},
    "australia": {"name_ja":"オーストラリア","lat":-35.2809,"lng":149.13,"region":"Oceania"},
    "new zealand": {"name_ja":"ニュージーランド","lat":-41.2866,"lng":174.7756,"region":"Oceania"},
    "united states": {"name_ja":"米国","lat":38.9072,"lng":-77.0369,"region":"North America"},
    "usa": {"name_ja":"米国","lat":38.9072,"lng":-77.0369,"region":"North America"},
    "canada": {"name_ja":"カナダ","lat":45.4215,"lng":-75.6972,"region":"North America"},
    "mexico": {"name_ja":"メキシコ","lat":19.4326,"lng":-99.1332,"region":"North America"},
    "united kingdom": {"name_ja":"英国","lat":51.5074,"lng":-0.1278,"region":"Europe"},
    "uk": {"name_ja":"英国","lat":51.5074,"lng":-0.1278,"region":"Europe"},
    "france": {"name_ja":"フランス","lat":48.8566,"lng":2.3522,"region":"Europe"},
    "germany": {"name_ja":"ドイツ","lat":52.52,"lng":13.405,"region":"Europe"},
    "italy": {"name_ja":"イタリア","lat":41.9028,"lng":12.4964,"region":"Europe"},
    "spain": {"name_ja":"スペイン","lat":40.4168,"lng":-3.7038,"region":"Europe"},
    "belgium": {"name_ja":"ベルギー","lat":50.8503,"lng":4.3517,"region":"Europe"},
    "netherlands": {"name_ja":"オランダ","lat":52.3676,"lng":4.9041,"region":"Europe"},
    "sweden": {"name_ja":"スウェーデン","lat":59.3293,"lng":18.0686,"region":"Europe"},
    "norway": {"name_ja":"ノルウェー","lat":59.9139,"lng":10.7522,"region":"Europe"},
    "denmark": {"name_ja":"デンマーク","lat":55.6761,"lng":12.5683,"region":"Europe"},
    "switzerland": {"name_ja":"スイス","lat":46.948,"lng":7.4474,"region":"Europe"},
    "eu": {"name_ja":"EU","lat":50.8503,"lng":4.3517,"region":"Europe"},
    "european union": {"name_ja":"EU","lat":50.8503,"lng":4.3517,"region":"Europe"},
    "brazil": {"name_ja":"ブラジル","lat":-15.7939,"lng":-47.8828,"region":"South America"},
    "argentina": {"name_ja":"アルゼンチン","lat":-34.6037,"lng":-58.3816,"region":"South America"},
    "chile": {"name_ja":"チリ","lat":-33.4489,"lng":-70.6693,"region":"South America"},
    "peru": {"name_ja":"ペルー","lat":-12.0464,"lng":-77.0428,"region":"South America"},
    "colombia": {"name_ja":"コロンビア","lat":4.711,"lng":-74.0721,"region":"South America"},
    "south africa": {"name_ja":"南アフリカ","lat":-25.7479,"lng":28.2293,"region":"Africa"},
    "nigeria": {"name_ja":"ナイジェリア","lat":9.0765,"lng":7.3986,"region":"Africa"},
    "kenya": {"name_ja":"ケニア","lat":-1.2921,"lng":36.8219,"region":"Africa"},
    "uganda": {"name_ja":"ウガンダ","lat":0.3476,"lng":32.5825,"region":"Africa"},
    "ethiopia": {"name_ja":"エチオピア","lat":8.9806,"lng":38.7578,"region":"Africa"},
    "ghana": {"name_ja":"ガーナ","lat":5.6037,"lng":-0.187,"region":"Africa"},
    "drc": {"name_ja":"コンゴ民主共和国","lat":-4.4419,"lng":15.2663,"region":"Africa"},
    "democratic republic of the congo": {"name_ja":"コンゴ民主共和国","lat":-4.4419,"lng":15.2663,"region":"Africa"}
  }
}
